District,R561H,C532W,G533A,G533G,V555A,WildType,lat,long,C532W_n,G533A_n,G533G_n,R561H_n,V555A_n,Wild Type_n,Total
Bugesera,0,2.139668324569,0,0,0,97.860331675431,-2.2315,30.1127,1,0,0,0,0,47,48
Gatsibo,0,0,0,0,0,100,-1.614,30.2897,0,0,0,0,0,11,11
Gisagara,0,0,0,0,0,100,-2.5854,29.8439,0,0,0,0,0,27,27
Huye,0,0,0,0,3.0142063156812,96.9857936843188,-2.6005,29.7419,0,0,0,0,1,32,33
Kamonyi,0,0,0,0,0,100,-2.0299,29.9278,0,0,0,0,0,3,3
Karongi,0,0,0,0,0,100,-2.177,29.4644,0,0,0,0,0,4,4
Kayonza,0,0,0,0,0,100,-1.7786,30.62,0,0,0,0,0,23,23
Kirehe,5.4725028751173,0,0,0,1.77860981082458,92.7488873140581,-2.2168,30.758,0,0,0,3,1,50,54
Ngoma,2.74485618642393,0,1.63015074920096,0,0,95.6249930643751,-2.139,30.5547,0,1,0,1,0,50,52
Nyamagabe,0,0,0,5.36909241041238,0,94.6309075895876,-2.3845,29.4644,0,0,1,0,0,19,20
Nyamasheke,0,0,0,0,0,100,-2.391,29.1856,0,0,0,0,0,3,3
Nyanza,0,0,0,0,1.92744735133231,98.0725526486677,-2.3245,29.8121,0,0,0,0,1,44,45
Nyaruguru,0,0,0,0,0,100,-2.6603,29.5572,0,0,0,0,0,9,9
Ruhango,0,0,0,0,0,100,-2.1877,29.7658,0,0,0,0,0,12,12
Rusizi,0,0,0,0,0,100,-2.5303,29.1856,0,0,0,0,0,7,7